City,Lat,Lng,Max Temp,Humidity,Cloudiness,Wind Speed,Country,Date
Kahului,20.8947,-156.47,81.9,62,20,13.8,US,1630005224
Ushuaia,-54.8,-68.3,40.62,48,0,0.81,AR,1630005309
Ploemeur,47.7333,-3.4333,64.67,76,90,12.66,FR,1630005310
Punta Arenas,-53.15,-70.9167,41.11,70,40,8.05,CL,1630005310
Carnarvon,-24.8667,113.6333,59.07,71,0,11.5,AU,1630005311
Chokurdakh,70.6333,147.9167,45.81,75,100,10.16,RU,1630005311
Mataura,-46.1927,168.8643,41.49,99,100,1.7,NZ,1630005311
Mount Isa,-20.7333,139.5,44.37,33,0,1.14,AU,1630005312
New Norfolk,-42.7826,147.0587,43.2,90,100,1.5,AU,1630005312
Kuandian,40.7286,124.7847,62.73,95,100,1.72,CN,1630005313
Lebu,-37.6167,-73.65,51.01,72,77,1.77,CL,1630005313
Avarua,-21.2078,-159.775,68.05,94,90,4.61,CK,1630005313
Rikitea,-23.1203,-134.9692,71.71,70,0,11.45,PF,1630005314
Saint-Philippe,-21.3585,55.7679,64.72,78,46,14.38,RE,1630005314
Havre-St-Pierre,50.2334,-63.5986,64.76,94,90,8.05,CA,1630005314
Puro,12.4841,123.3827,79.12,85,100,10.02,PH,1630005315
Bay City,43.5945,-83.8889,85.82,62,40,0.0,US,1630005106
Victor Harbor,-35.5667,138.6167,41.18,91,7,5.39,AU,1630005315
Sitka,57.0531,-135.33,60.69,72,75,5.75,US,1630005316
Yellowknife,62.456,-114.3525,68.52,56,20,9.22,CA,1630005316
Kaitangata,-46.2817,169.8464,44.1,90,100,5.23,NZ,1630005316
Mormugao,15.4,73.8,80.26,81,100,4.92,IN,1630005317
Dikson,73.5069,80.5464,37.87,76,21,15.32,RU,1630005317
Karratha,-20.7377,116.8463,72.88,36,99,13.33,AU,1630005318
Korla,41.7597,86.1469,74.48,32,57,15.79,CN,1630005318
Poum,-20.2333,164.0167,72.46,82,12,11.54,NC,1630005319
Piaçabuçu,-10.4056,-36.4344,78.1,73,9,9.8,BR,1630005319
Tigil',57.8,158.6667,53.47,81,100,4.21,RU,1630005319
San Quintín,30.4833,-115.95,82.0,59,13,14.2,MX,1630005320
Vrangel',42.7297,133.0839,68.52,96,100,2.48,RU,1630005320
Klaksvík,62.2266,-6.589,52.72,94,100,0.94,FO,1630005320
Goundam,16.4145,-3.6708,91.99,40,81,19.19,ML,1630005321
Aire-sur-la-Lys,50.6387,2.3988,60.33,86,100,12.59,FR,1630005321
Busselton,-33.65,115.3333,47.08,55,50,16.71,AU,1630005322
Lianzhou,24.7811,112.3825,74.75,97,98,2.39,CN,1630005322
Qaanaaq,77.484,-69.3632,37.83,96,100,6.98,GL,1630005322
Antalaha,-14.9003,50.2788,66.4,80,0,8.57,MG,1630005323
Butaritari,3.0707,172.7902,81.93,75,100,13.31,KI,1630005323
Abonnema,4.7084,6.7931,73.49,97,100,5.93,NG,1630005324
Norman Wells,65.282,-126.8329,59.04,82,75,4.61,CA,1630005324
Chui,-33.6971,-53.4616,60.93,46,0,4.0,UY,1630005324
Nazca,-14.8333,-74.95,72.9,46,45,9.93,PE,1630005325
Muisne,0.6,-80.0333,80.71,77,99,9.8,EC,1630005326
Nishihara,26.1842,127.7558,80.31,89,20,4.61,JP,1630005327
Teahupoo,-17.8333,-149.2667,69.76,74,41,15.12,PF,1630005327
Hilo,19.7297,-155.09,76.15,80,75,0.0,US,1630005052
Hobart,-42.8794,147.3294,45.05,95,90,1.01,AU,1630005328
Cape Town,-33.9258,18.4232,51.78,87,100,4.0,ZA,1630005165
Oodweyne,9.4092,45.064,80.69,36,95,17.47,SO,1630005328
Dolinsk,47.35,142.8,60.66,96,100,5.17,RU,1630005329
Cooma,-36.2333,149.1333,39.58,98,100,4.59,AU,1630005329
Yulara,-25.2406,130.9889,44.44,39,3,2.3,AU,1630005329
Torbay,47.6666,-52.7314,60.84,76,20,8.05,CA,1630005327
Tual,-5.6667,132.75,80.17,80,46,19.19,ID,1630005330
Souillac,-20.5167,57.5167,70.18,68,20,9.22,MU,1630005330
Castro,-24.7911,-50.0119,70.93,47,65,10.69,BR,1630005331
Mahibadhoo,3.7833,72.9667,82.89,75,99,13.31,MV,1630005331
Ilulissat,69.2167,-51.1,46.42,71,75,8.05,GL,1630005332
Vaini,-21.2,-175.2,66.36,77,40,9.22,TO,1630005332
Mar del Plata,-38.0023,-57.5575,66.22,26,20,26.46,AR,1630005333
Narsaq,60.9167,-46.05,59.22,60,13,5.7,GL,1630005185
Labuhan,-6.8844,112.2051,74.16,76,79,8.75,ID,1630005333
Rāver,21.25,76.0333,76.66,81,100,5.28,IN,1630005334
Cururupu,-1.8283,-44.8683,84.31,70,43,6.76,BR,1630005334
Teguise,29.0605,-13.564,71.82,73,20,16.11,ES,1630005334
Severo-Kuril'sk,50.6789,156.125,53.56,88,100,6.58,RU,1630005335
Clyde River,70.4692,-68.5914,37.45,94,100,2.04,CA,1630005335
Nanortalik,60.1432,-45.2371,45.1,83,25,16.13,GL,1630005336
Gouré,13.9835,10.2704,84.02,48,98,3.38,NE,1630005336
Beringovskiy,63.05,179.3167,46.87,73,6,7.85,RU,1630005336
Hofn,64.2539,-15.2082,54.39,98,88,7.61,IS,1630005337
Bluff,-46.6,168.3333,41.81,72,91,9.13,NZ,1630005337
Hambantota,6.1241,81.1185,80.69,78,94,17.56,LK,1630005338
Vila Velha,-20.3297,-40.2925,78.75,69,0,18.41,BR,1630005339
Broome,42.2506,-75.833,84.65,63,1,0.0,US,1630005339
Guardiagrele,42.1954,14.2198,67.3,81,10,4.92,IT,1630005339
Huilong,31.8111,121.655,75.97,92,95,10.92,CN,1630005340
Tiksi,71.6872,128.8694,39.7,96,100,18.54,RU,1630005340
Alingsås,57.9303,12.5335,56.05,91,100,14.9,SE,1630005149
San Ignacio,17.1561,-89.0714,89.74,66,40,4.61,BZ,1630005341
Smithers,54.7804,-127.1743,61.12,77,75,3.44,CA,1630005320
Lavrentiya,65.5833,-171.0,38.25,67,97,12.28,RU,1630005341
Adrar,20.5022,-10.0711,104.05,7,14,10.78,MR,1630005342
Mount Gambier,-37.8333,140.7667,37.31,100,75,0.0,AU,1630005342
East London,-33.0153,27.9116,67.06,72,3,12.57,ZA,1630005343
Mossamedes,-15.1961,12.1522,61.65,82,81,9.69,AO,1630005343
Albany,42.6001,-73.9662,88.99,66,10,2.84,US,1630005045
Geraldton,-28.7667,114.6,54.01,87,90,3.44,AU,1630005344
Ruwi,23.5996,58.5507,89.29,36,15,3.36,OM,1630005344
Airai,-8.9266,125.4092,56.14,88,14,3.58,TL,1630005345
Ormara,25.2088,64.6357,78.73,88,69,11.5,PK,1630005345
Ponta do Sol,32.6667,-17.1,76.62,78,25,6.85,PT,1630005345
São Luís de Montes Belos,-16.525,-50.3722,96.3,15,100,4.5,BR,1630005346
Lata,40.1629,-8.3327,68.86,69,0,4.52,PT,1630005346
Arrondissement de Saint-Dizier,48.4167,5.0833,60.4,74,89,8.93,FR,1630005347
Rancho San Diego,32.7473,-116.9353,90.18,35,1,1.99,US,1630005334
Talnakh,69.4865,88.3972,45.59,93,100,9.06,RU,1630005347
Padang,-0.9492,100.3543,76.62,88,38,3.6,ID,1630005347
Senneterre,48.3835,-77.2328,70.38,46,12,11.12,CA,1630005109
Coyhaique,-45.5752,-72.0662,45.21,76,68,8.72,CL,1630005348
Praia da Vitória,38.7333,-27.0667,71.76,73,18,15.35,PT,1630005202
Erdenet,49.0333,104.0833,44.64,83,97,2.91,MN,1630005187
Henties Bay,-22.116,14.2845,56.86,91,1,6.49,NA,1630005349
Quatre Cocos,-20.2078,57.7625,67.08,73,5,13.42,MU,1630005349
Tuktoyaktuk,69.4541,-133.0374,59.0,82,75,11.5,CA,1630005350
Hervey Bay,-25.2986,152.8535,47.03,49,0,7.81,AU,1630005350
Hermanus,-34.4187,19.2345,49.8,90,100,17.34,ZA,1630005351
Pevek,69.7008,170.3133,34.88,83,100,4.83,RU,1630005351
Leningradskiy,69.3833,178.4167,34.25,82,100,17.56,RU,1630005351
Alofi,-19.0595,-169.9187,67.89,73,100,9.22,NU,1630005352
Longyearbyen,78.2186,15.6401,42.64,81,75,23.02,SJ,1630005352
Cidreira,-30.1811,-50.2056,57.43,85,100,7.25,BR,1630005353
Domoni,-12.2569,44.5319,75.29,84,21,2.48,KM,1630005353
Hithadhoo,-0.6,73.0833,82.62,72,97,8.88,MV,1630005353
Sheridan,44.8333,-106.9173,83.17,39,1,3.0,US,1630005354
College,64.8569,-147.8028,51.76,89,90,8.05,US,1630005283
Jamestown,42.097,-79.2353,84.67,63,1,3.0,US,1630005354
Lagos,6.5833,3.75,76.3,90,100,4.29,NG,1630005056
Esperance,-33.8667,121.9,48.36,84,67,21.39,AU,1630005355
Bethel,41.3712,-73.414,91.08,56,40,3.0,US,1630005355
Sisimiut,66.9395,-53.6735,41.88,90,100,5.32,GL,1630005356
Mgandu,-5.95,34.1333,65.98,35,5,4.54,TZ,1630005356
Santa María del Monte,19.2878,-99.8228,69.71,52,37,6.85,MX,1630005356
Sioux Lookout,50.1001,-91.917,59.07,63,90,3.44,CA,1630005357
Puerto Ayora,-0.7393,-90.3518,72.55,79,95,8.99,EC,1630005357
Saint George,37.1041,-113.5841,98.51,18,1,1.99,US,1630005358
Cabo San Lucas,22.8909,-109.9124,94.05,55,20,12.66,MX,1630005358
Eisenach,50.9833,10.3167,54.45,95,100,4.29,DE,1630005359
Ngunguru,-35.6167,174.5,57.16,78,100,15.08,NZ,1630005359
Saskylakh,71.9167,114.0833,36.55,87,100,16.93,RU,1630005359
Tasiilaq,65.6145,-37.6368,48.36,92,100,10.94,GL,1630005360
Gorin,51.1983,136.6669,61.57,98,100,3.11,RU,1630005360
Aklavik,68.2191,-135.0107,60.8,72,75,6.91,CA,1630005360
Bredasdorp,-34.5322,20.0403,49.32,87,100,12.66,ZA,1630005361
Kavieng,-2.5744,150.7967,81.63,77,51,12.53,PG,1630005361
Faanui,-16.4833,-151.75,78.98,61,70,12.97,PF,1630005362
Mount Darwin,-16.7725,31.5838,63.52,45,0,3.89,ZW,1630005363
Cochrane,51.1834,-114.4687,69.96,25,16,4.52,CA,1630005095
Vardø,70.3705,31.1107,53.58,71,0,11.5,NO,1630005364
Glenwood Springs,39.5505,-107.3248,70.9,62,90,4.61,US,1630005153
Panórama,40.5878,23.0315,71.24,71,20,1.99,GR,1630005366
Port Hedland,-20.3167,118.5667,59.05,82,100,2.3,AU,1630005367
Elizabeth City,36.2946,-76.2511,91.49,67,1,3.0,US,1630005367
Christiana,-27.914,25.1611,70.68,36,22,16.98,ZA,1630005368
Province of Mantua,45.1667,10.7833,75.65,67,42,1.01,IT,1630005368
Itarema,-2.9248,-39.9167,83.86,62,9,21.7,BR,1630005369
Atuona,-9.8,-139.0333,77.9,72,0,21.32,PF,1630005369
Wana,32.2989,69.5725,83.19,32,0,4.21,PK,1630005369
Gazojak,41.1875,61.4036,83.7,23,0,5.61,TM,1630005370
Anshun,26.25,105.9333,61.52,93,100,3.96,CN,1630005370
Barrow,71.2906,-156.7887,42.82,81,90,13.8,US,1630005099
Arraias,-12.9288,-46.9437,94.14,15,85,5.61,BR,1630005371
Rio Branco,-9.9747,-67.81,97.41,41,40,12.66,BR,1630005371
Nsukka,6.8561,7.3927,70.5,96,100,5.37,NG,1630005372
Chara,56.9064,118.2631,55.44,66,97,2.24,RU,1630005372
Ahipara,-35.1667,173.1667,57.42,91,100,13.0,NZ,1630005373
Punta Ocote,15.2,-87.2833,85.8,54,40,11.5,HN,1630005373
Port Elizabeth,-33.918,25.5701,57.49,94,40,4.61,ZA,1630005373
Shingū,33.7333,135.9833,77.92,85,99,5.19,JP,1630005374
Bengkulu,-3.8004,102.2655,74.55,87,5,5.84,ID,1630005374
Shaunavon,49.6501,-108.4181,67.78,43,61,11.79,CA,1630005375
Makakilo City,21.3469,-158.0858,80.28,61,20,10.36,US,1630005260
Lorengau,-2.0226,147.2712,80.1,80,100,9.75,PG,1630005375
Kattivākkam,13.2167,80.3167,82.49,69,100,13.06,IN,1630005376
Saint Paul Harbor,57.79,-152.4072,56.71,77,1,4.61,US,1630005376
Manzhouli,49.6,117.4333,51.98,90,100,10.8,CN,1630005377
Kapaa,22.0752,-159.319,79.88,71,20,1.99,US,1630005127
Haines Junction,60.7522,-137.5108,53.55,71,100,1.14,CA,1630005377
Khatanga,71.9667,102.5,36.45,85,98,4.63,RU,1630005378
Puerto Ayacucho,5.6639,-67.6236,90.16,58,85,3.58,VE,1630005378
Marquette,46.5333,-87.6335,68.59,71,6,8.63,US,1630005378
Zhuhai,22.2769,113.5678,83.82,84,20,9.22,CN,1630005379
Jamkhed,18.7362,75.3121,75.65,83,100,9.15,IN,1630005379
Bambanglipuro,-7.95,110.2833,72.28,82,20,2.86,ID,1630005379
Margate,51.3813,1.3862,61.68,64,100,5.99,GB,1630005115
Broken Hill,-31.95,141.4333,41.52,78,19,1.3,AU,1630005380
São Filipe,14.8961,-24.4956,78.66,89,99,8.68,CV,1630005380
Kangaatsiaq,68.3065,-53.4641,39.87,92,100,9.31,GL,1630005381
Warrington,53.3925,-2.5802,61.84,68,0,3.0,GB,1630005381
São João da Barra,-21.6403,-41.0511,78.89,75,0,26.04,BR,1630005381
Banda Aceh,5.5577,95.3222,78.67,82,80,7.47,ID,1630005382
Saldanha,-33.0117,17.9442,51.85,88,100,23.47,ZA,1630005382
Joshīmath,30.5667,79.5667,71.11,92,99,0.36,IN,1630005383
Port Alfred,-33.5906,26.891,64.24,82,9,7.38,ZA,1630005383
Fillan,63.6064,8.9696,53.06,71,92,10.98,NO,1630005383
Ossora,59.2353,163.0719,55.36,92,100,5.19,RU,1630005384
Ancud,-41.8697,-73.8203,47.73,63,99,8.72,CL,1630005384
Bubaque,11.2833,-15.8333,80.51,77,100,4.83,GW,1630005384
Benghazi,32.1167,20.0667,81.3,69,0,9.37,LY,1630005160
Talara,-4.5772,-81.2719,74.16,64,0,13.8,PE,1630005385
Porosozero,62.7191,32.727,50.36,78,100,6.69,RU,1630005385
Mariental,-24.6333,17.9667,67.91,12,2,11.65,NA,1630005386
Bambous Virieux,-20.3428,57.7575,70.05,68,20,9.22,MU,1630005386
Upernavik,72.7868,-56.1549,38.57,97,100,12.44,GL,1630005387
Lahat,-3.8,103.5333,71.94,95,25,2.37,ID,1630005387
Nador,35.174,-2.9287,75.45,83,20,4.61,MA,1630005176
Kalmunai,7.4167,81.8167,81.0,76,100,2.98,LK,1630005388
Lodja,-3.4833,23.4333,80.42,50,35,0.58,CD,1630005388
Santiago de Cao,-7.9589,-79.2392,62.73,82,90,13.8,PE,1630005388
Acaraú,-2.8856,-40.12,84.76,61,8,22.84,BR,1630005389
Ribeira Grande,38.5167,-28.7,72.0,56,20,14.97,PT,1630005389
Gorontalo,0.5412,123.0595,74.73,95,100,2.95,ID,1630005390
Fortuna,40.5982,-124.1573,65.12,77,20,3.0,US,1630005390
Dromolaxia,34.8761,33.586,87.22,32,0,11.5,CY,1630005390
Miragoâne,18.4423,-73.0876,84.52,62,14,6.15,HT,1630005391
Iqaluit,63.7506,-68.5145,44.33,76,75,5.75,CA,1630005391
Zhangjiakou Shi Xuanhua Qu,40.6103,115.0447,57.22,74,0,2.48,CN,1630005392
Mīrābād,30.4362,61.8383,88.27,11,0,20.96,AF,1630005392
Breytovo,58.2993,37.8617,53.83,90,100,11.9,RU,1630005392
Alice Springs,-23.7,133.8833,42.35,39,3,0.0,AU,1630005393
Lugovskoy,56.9585,64.529,66.42,96,100,7.63,RU,1630005393
Ca Mau,9.1769,105.15,75.63,91,100,2.98,VN,1630005393
Grindavik,63.8424,-22.4338,54.07,94,90,20.71,IS,1630005394
Mildura,-34.2,142.15,31.96,80,6,0.0,AU,1630005394
Bahía Blanca,-38.7196,-62.2724,56.62,18,88,23.96,AR,1630005180
Touros,-5.1989,-35.4608,83.3,62,0,19.33,BR,1630005395
Inverness,57.4791,-4.224,56.16,86,0,1.99,GB,1630005178
Labytnangi,66.6572,66.4183,44.29,91,100,7.36,RU,1630005395
Sur,22.5667,59.5289,91.04,52,71,14.12,OM,1630005396
Agadez,19.75,10.25,95.32,15,6,1.25,NE,1630005396
Morgaushi,55.9643,46.7743,57.36,55,92,6.55,RU,1630005397
Valley Station,38.1112,-85.8702,93.52,52,20,1.01,US,1630005397
Grootfontein,-19.5667,18.1167,67.57,40,0,2.3,NA,1630005397
Iwanai,42.9744,140.5089,66.11,97,98,3.8,JP,1630005398
Oktyabr'skoye,43.0645,44.7417,62.74,82,62,8.95,RU,1630005398
Puerto Madryn,-42.7692,-65.0385,37.69,67,100,32.26,AR,1630005399
Redmond,47.674,-122.1215,66.58,71,100,5.01,US,1630005351
Half Moon Bay,37.4636,-122.4286,73.29,68,1,1.01,US,1630005227
Nome,64.5011,-165.4064,48.27,67,1,12.66,US,1630005399
Ust-Tsilma,65.441,52.1498,44.38,85,100,5.21,RU,1630005400
Ponta Delgada,37.7333,-25.6667,72.32,60,20,5.75,PT,1630005400
Mezen',65.8522,44.24,43.84,83,94,5.08,RU,1630005400
Barahan,13.0121,120.762,78.66,75,99,3.22,PH,1630005401
Port-Gentil,-0.7193,8.7815,76.35,84,90,12.5,GA,1630005401
Plérin,48.5425,-2.7798,61.14,91,75,4.0,FR,1630005402
Midland,31.9974,-102.0779,89.44,41,40,11.5,US,1630005264
Necochea,-38.5473,-58.7368,50.04,77,100,24.74,AR,1630005402
Kanadey,53.1679,47.5264,57.54,50,2,7.61,RU,1630005403
Taltal,-25.4,-70.4833,61.65,65,24,5.01,CL,1630005403
Kruisfontein,-34.0033,24.7314,55.89,88,0,5.46,ZA,1630005404
Kalabo,-14.97,22.6814,71.82,18,0,4.29,ZM,1630005404
Vestmanna,62.1564,-7.1664,50.92,100,90,2.3,FO,1630005404
Yeppoon,-23.1333,150.7333,46.18,74,0,3.87,AU,1630005405
Nikolskoye,59.7035,30.7861,57.09,82,100,8.81,RU,1630005405
Ajuchitlán,20.7167,-100.0167,71.65,43,4,13.0,MX,1630005406
Vilyuysk,63.7553,121.6247,49.86,78,100,9.28,RU,1630005406
Bahār,34.9072,48.4414,76.44,16,0,12.35,IR,1630005407
Muros,42.7762,-9.0603,67.28,86,47,1.25,ES,1630005407
Abhā,18.2164,42.5053,71.85,60,0,4.61,SA,1630005407
Vryburg,-26.9566,24.7284,66.43,49,26,15.12,ZA,1630005408
Odesa,46.4775,30.7326,62.53,94,20,4.47,UA,1630005392
Cockburn Town,21.4612,-71.1419,85.96,66,40,12.66,TC,1630005356
Meulaboh,4.1363,96.1285,76.17,90,99,3.53,ID,1630005408
Betioky,-23.7167,44.3833,68.79,71,0,12.37,MG,1630005409
Samarai,-10.6167,150.6667,79.79,82,69,12.35,PG,1630005409
Prince Rupert,54.3161,-130.3201,57.52,91,90,3.44,CA,1630005325
Thompson,55.7435,-97.8558,69.93,29,5,9.04,CA,1630005410
Thinadhoo,0.5333,72.9333,82.87,74,14,10.16,MV,1630005410
Iquitos,-3.7481,-73.2472,95.04,49,75,6.91,PE,1630005411
George Town,5.4112,100.3354,80.06,88,20,2.3,MY,1630005327
Mazagão,-0.115,-51.2894,93.25,50,23,5.03,BR,1630005411
Rapid Valley,44.0625,-103.1463,81.32,48,1,3.0,US,1630005412
Kondoa,-4.9,35.7833,63.88,42,0,6.91,TZ,1630005412
Camacha,33.0833,-16.3333,72.81,73,20,11.5,PT,1630005412
Atasū,48.6814,71.6433,70.65,27,56,8.25,KZ,1630005413
Dongsheng,39.8161,109.9776,55.62,57,8,5.75,CN,1630005413
Khani,41.9563,42.9566,65.77,86,0,4.05,GE,1630005414
Tura,25.5198,90.2201,73.99,99,100,3.98,IN,1630005414
Manono,-7.3,27.4167,84.34,28,22,4.56,CD,1630005414
Uttarkāshi,30.7333,78.45,72.27,94,96,2.24,IN,1630005415
Buala,-8.145,159.5921,79.25,82,69,8.1,SB,1630005415
Hong Kong,22.2855,114.1577,84.79,84,1,1.01,HK,1630005170
Chicama,-7.8447,-79.1469,61.34,62,78,9.91,PE,1630005416
Olden,61.8364,6.8064,56.75,60,26,3.67,NO,1630005416
Mahébourg,-20.4081,57.7,70.09,68,20,9.22,MU,1630005417
Dzerzhinskoye,56.8344,95.2283,60.39,94,63,0.74,RU,1630005417
Provideniya,64.3833,-173.3,39.31,60,0,6.71,RU,1630005417
Lüderitz,-26.6481,15.1594,55.53,82,0,5.68,NA,1630005418
Leer,8.3018,30.1418,69.84,90,100,2.93,SS,1630005418
Pisco,-13.7,-76.2167,68.05,64,0,16.11,PE,1630005419
Inhambane,-23.865,35.3833,71.58,88,20,4.61,MZ,1630005419
Yerbogachën,61.2767,108.0108,43.75,86,19,4.0,RU,1630005419
Nadym,65.5333,72.5167,45.97,91,100,19.8,RU,1630005420
Salisbury,51.0693,-1.7957,62.8,63,0,9.22,GB,1630005327
Tezu,27.9167,96.1667,73.69,97,100,3.18,IN,1630005420
Hong Gai,20.956,107.0946,82.31,88,100,6.04,VN,1630005421
Laas,46.6166,10.7002,69.93,76,93,6.11,IT,1630005421
Constantine,36.365,6.6147,76.41,69,20,2.3,DZ,1630005421
Beruwala,6.4788,79.9828,78.76,88,100,8.9,LK,1630005422
Kanhangad,12.3081,75.1063,77.86,87,100,2.28,IN,1630005422
Pangnirtung,66.1451,-65.7125,46.4,76,75,17.27,CA,1630005423
Ordzhonīkīdze,52.4411,61.7408,72.25,34,6,3.51,KZ,1630005423
Hereford,52.0568,-2.7148,62.64,52,0,6.17,GB,1630005424
Beāwar,26.1,74.3167,82.04,54,81,14.54,IN,1630005424
Tiznit Province,29.5833,-9.5,74.25,61,4,5.35,MA,1630005424
Ostrovnoy,68.0531,39.5131,42.48,76,39,7.52,RU,1630005425
Saint-Leu,-21.15,55.2833,64.11,75,16,13.82,RE,1630005425
Nechí,8.0942,-74.7757,88.3,60,100,4.34,CO,1630005426
Gornopravdinsk,60.05,69.9,61.81,97,100,6.24,RU,1630005426
Matias Barbosa,-21.8692,-43.3194,76.24,42,5,6.76,BR,1630005426
Yangi Marg`ilon,40.4272,71.7189,75.92,33,78,4.61,UZ,1630005427
São Domingos,-13.3983,-46.3183,93.85,16,76,6.49,BR,1630005427
Bathsheba,13.2167,-59.5167,88.41,66,40,18.41,BB,1630005428
Hammerfest,70.6634,23.6821,50.45,71,0,5.75,NO,1630005428
Awjilah,29.1081,21.2869,87.91,24,0,8.66,LY,1630005429
Port-Cartier,50.0334,-66.8654,64.62,88,98,6.82,CA,1630005429
Lompoc,34.6391,-120.4579,70.68,77,1,12.66,US,1630005392
Matara,5.9485,80.5353,78.21,88,99,11.61,LK,1630005429
Cape Canaveral,28.4058,-80.6048,87.4,76,1,13.8,US,1630005430
Vavatenina,-17.4667,49.2,64.92,94,88,1.9,MG,1630005430
Puerto Escondido,15.85,-97.0667,88.63,62,75,16.11,MX,1630005363
Lagoa,39.05,-27.9833,68.97,62,92,15.12,PT,1630005431
Moose Factory,51.2585,-80.6094,57.18,62,90,13.8,CA,1630005431
Diego de Almagro,-26.3667,-70.05,70.7,15,0,9.57,CL,1630005432
Asău,46.4333,26.4,56.95,90,0,4.88,RO,1630005432
Saiha,22.4833,92.9667,71.01,99,100,2.08,IN,1630005433
Catió,11.2833,-15.25,77.94,87,100,4.85,GW,1630005433
Monroe,43.1501,-77.6831,86.9,69,20,9.22,US,1630005433
San Patricio,28.017,-97.5169,92.52,40,83,9.8,US,1630005434
Banff,51.1762,-115.5698,66.42,32,100,4.61,CA,1630005434
Mehamn,71.0357,27.8492,51.71,62,100,13.67,NO,1630005435
Tautira,-17.7333,-149.15,75.22,74,57,14.94,PF,1630005435
Yunyang,33.4474,112.7142,63.39,89,100,2.42,CN,1630005435
Kieta,-6.2167,155.6333,78.12,85,100,6.91,PG,1630005436
Staryy Nadym,65.6118,72.6842,45.84,92,100,19.8,RU,1630005436
Evensk,61.95,159.2333,49.1,99,100,6.58,RU,1630005436
High Level,58.5169,-117.136,71.71,46,40,5.75,CA,1630005437
Baghdad,33.3406,44.4009,93.11,24,0,6.91,IQ,1630005283
Olafsvik,64.8945,-23.7142,54.81,87,100,15.68,IS,1630005437
Bilibino,68.0546,166.4372,41.47,89,100,1.97,RU,1630005438
Yima,34.7381,111.8839,63.36,87,68,1.23,CN,1630005438
Te Anau,-45.4167,167.7167,43.11,98,100,2.26,NZ,1630005438
Arraial do Cabo,-22.9661,-42.0278,84.06,51,0,14.97,BR,1630005439
Vestmannaeyjar,63.4427,-20.2734,55.22,95,100,19.57,IS,1630005439
Caravelas,-17.7125,-39.2481,77.41,68,0,10.16,BR,1630005440
Cascais,38.6979,-9.4215,69.46,69,0,3.0,PT,1630005440
Katsuura,35.1333,140.3,77.02,94,100,1.97,JP,1630005440
Darnah,32.767,22.6367,78.89,81,0,14.2,LY,1630005441
Payo,-3.7508,103.6372,71.92,95,28,2.33,ID,1630005441
Pochutla,15.7432,-96.4661,77.81,71,100,12.03,MX,1630005442
At-Bashi,41.1702,75.8106,55.81,49,48,2.1,KG,1630005442
Nelson Bay,-32.7167,152.15,46.35,94,38,14.29,AU,1630005442
Lázaro Cárdenas,17.9583,-102.2,86.4,66,91,3.22,MX,1630005443
Sakaiminato,35.55,133.2333,73.38,94,75,6.91,JP,1630005443
Palmer,42.1584,-72.3287,91.83,55,40,6.91,US,1630005444
Diamantino,-14.4086,-56.4461,97.14,19,100,9.1,BR,1630005444
Semey,50.4111,80.2275,66.99,46,0,8.23,KZ,1630005444
Portland,45.5234,-122.6762,68.54,74,90,3.0,US,1630005081
Cherskiy,68.75,161.3,42.78,83,95,5.03,RU,1630005445
Shestakovo,56.4915,103.96,50.92,92,24,0.2,RU,1630005445
Safi,32.2994,-9.2372,71.67,79,0,13.22,MA,1630005446
Balabac,7.9868,117.0645,77.81,89,100,6.13,PH,1630005446
Srednekolymsk,67.45,153.6833,52.29,54,100,10.31,RU,1630005447
Nuuk,64.1835,-51.7216,45.21,81,75,6.91,GL,1630005447
Kaduqli,11.0167,29.7167,70.47,91,100,4.72,SD,1630005447
Oranjemund,-28.55,16.4333,56.19,76,0,14.97,NA,1630005448
Sibolga,1.7427,98.7792,75.27,90,100,2.86,ID,1630005448
Shimoda,34.6667,138.95,80.44,83,100,3.4,JP,1630005449
Purwodadi Grobogan,-7.0868,110.9158,71.89,75,46,6.15,ID,1630005449
Springdale,36.1867,-94.1288,92.41,54,75,4.61,US,1630005325
Imbituba,-28.24,-48.6703,64.29,87,100,13.89,BR,1630005449
Port Augusta,-32.5,137.7667,38.71,82,5,3.49,AU,1630005450
Marzuq,14.4,46.4667,82.35,53,44,7.67,YE,1630005450
Antofagasta,-23.65,-70.4,60.08,71,50,10.47,CL,1630005363
Port Lincoln,-34.7333,135.8667,48.29,71,33,12.88,AU,1630005451
Ikongo,-21.8833,47.4333,62.96,99,63,2.04,MG,1630005451
Laguna,38.421,-121.4238,84.02,35,1,3.0,US,1630005382
Lashio,22.9333,97.75,67.59,99,100,1.45,MM,1630005452
Bandundu Province,-3.3167,17.3667,86.97,44,82,3.4,CD,1630005452
Tondano,1.3038,124.9112,66.29,93,21,1.19,ID,1630005452
Barra de Tecoanapa,16.5167,-98.75,86.2,65,100,8.48,MX,1630005453
Husavik,66.0449,-17.3389,64.31,76,98,6.49,IS,1630005453
Yantal',56.8471,105.2542,51.46,95,5,1.68,RU,1630005454
Coromandel,-18.4733,-47.2003,87.3,20,6,3.06,BR,1630005454
Kysyl-Syr,63.8986,122.7617,48.16,86,86,8.68,RU,1630005455
Atherton,53.5237,-2.4935,61.05,67,0,4.0,GB,1630005455
Turukhansk,65.8167,87.9833,54.18,59,92,13.24,RU,1630005456
Dawson Creek,55.7666,-120.2362,65.8,52,20,11.5,CA,1630005328
Burnie,-41.0667,145.9167,43.59,76,100,7.87,AU,1630005456
Eyrarbakki,63.863,-21.1481,54.21,95,100,16.82,IS,1630005457
Ternate,0.8,127.4,79.05,80,12,2.66,ID,1630005457
Tegul'det,57.3064,88.1667,59.76,93,0,4.43,RU,1630005457
Qaqortoq,60.7167,-46.0333,59.5,71,9,8.5,GL,1630005458
Sekoma,-24.4,23.8833,70.34,31,3,6.6,BW,1630005458
Ambilobe,-13.2,49.05,68.25,78,1,3.8,MG,1630005458
Porto Torres,40.835,8.3972,75.38,70,0,10.47,IT,1630005459
Constitución,-35.3333,-72.4167,55.8,56,6,9.53,CL,1630005214
Chumikan,54.7183,135.315,56.23,92,100,1.14,RU,1630005459
Bereda,43.2686,-7.5406,64.58,90,100,1.32,ES,1630005460
Pran Buri,12.3847,99.9098,77.49,81,99,5.1,TH,1630005460
Ozernovskiy,51.5,156.5167,53.35,98,100,5.48,RU,1630005461
Povenets,62.8487,34.8262,54.21,64,100,8.34,RU,1630005461
Port Macquarie,-31.4333,152.9167,44.56,80,6,5.82,AU,1630005461
Aykhal,66.0,111.5,38.14,93,100,15.7,RU,1630005462
Takoradze,4.8845,-1.7554,77.49,84,14,6.51,GH,1630005462
Japura,-0.3167,102.35,72.84,97,40,1.66,ID,1630005462
Shintomi,32.0785,131.4723,75.79,87,100,5.7,JP,1630005463
Kudahuvadhoo,2.6708,72.8944,82.08,77,38,13.04,MV,1630005463
Singapore,1.2897,103.8501,78.46,91,75,1.14,SG,1630005272
Xining,36.6167,101.7667,49.77,57,5,2.48,CN,1630005464
Bowmore,34.9421,-79.3031,90.81,58,12,4.0,US,1630005464
Nemuro,43.3236,145.575,61.25,99,100,6.02,JP,1630005465
Monywa,22.1167,95.1333,81.64,78,100,7.67,MM,1630005465
Kitgum,3.2783,32.8867,70.07,80,51,3.0,UG,1630005466
Abu Kamal,34.4506,40.9171,96.28,18,0,6.62,SY,1630005466
Nurota,40.5614,65.6886,78.89,20,0,4.5,UZ,1630005466
Maturin,9.75,-63.1767,88.56,53,21,9.06,VE,1630005467
Lipin Bor,60.2622,37.9763,54.7,69,84,12.82,RU,1630005467
Severo-Yeniseyskiy,60.3725,93.0408,49.33,67,7,2.39,RU,1630005467
General Roca,-39.0333,-67.5833,57.6,21,100,37.0,AR,1630005468
Vilhena,-12.7406,-60.1458,86.22,51,93,16.11,BR,1630005468
Malakal,9.5334,31.6605,72.79,91,100,3.24,SS,1630005468
Burē,10.7,37.0667,55.53,96,100,1.99,ET,1630005469
Barabai,-2.5833,115.3833,71.73,97,100,1.7,ID,1630005469
Saint-Joseph,-21.3667,55.6167,64.11,77,24,14.88,RE,1630005470
Härnösand,62.6323,17.9379,54.48,88,100,21.61,SE,1630005470
Voh,-20.9667,164.7,67.95,90,78,4.81,NC,1630005470
Sarlat-la-Canéda,44.889,1.2166,72.14,47,2,4.25,FR,1630005471
Rawson,-43.3002,-65.1023,37.69,93,40,20.71,AR,1630005471
Ostër,50.9506,30.8823,60.62,97,100,4.61,UA,1630005472
Magadan,59.5667,150.8,52.61,99,100,4.7,RU,1630005472
Nong’an,44.382,125.1685,64.81,96,0,12.62,CN,1630005472
"Burgdorf, Hanover",52.4463,10.0064,59.52,70,75,3.44,DE,1630005473
Gunnedah,-30.9833,150.25,40.62,86,7,2.71,AU,1630005473
Markivka,49.5229,39.5705,73.18,32,100,11.5,UA,1630005473
San Jose,37.3394,-121.895,78.08,44,1,3.44,US,1630005336
Manaus,-3.1019,-60.025,93.69,55,40,5.75,BR,1630005421
Mashhad,36.297,59.6062,77.14,38,0,4.61,IR,1630005474
Goubellat,36.5418,9.6633,80.82,44,0,6.08,TN,1630005474
Bealanana,-14.55,48.7333,50.5,96,2,4.47,MG,1630005475
Zhigansk,66.7697,123.3711,42.75,83,100,19.17,RU,1630005475
Paamiut,61.994,-49.6678,43.59,89,24,15.9,GL,1630005476
Kushnarenkovo,55.105,55.3508,64.78,47,43,8.61,RU,1630005476
Abéché,13.8292,20.8324,71.85,85,100,14.07,TD,1630005476
Malé,4.1748,73.5089,82.56,76,100,16.17,MV,1630005477
Illela,13.7292,5.2975,89.33,44,19,1.21,NG,1630005477
Makkah al Mukarramah,21.4267,39.8261,95.76,37,100,7.94,SA,1630005409
Egvekinot,66.3167,-179.1667,35.37,96,100,1.72,RU,1630005478
Mayumba,-3.432,10.6554,74.43,87,4,5.55,GA,1630005478
Aksarka,66.5606,67.7975,42.49,94,100,17.94,RU,1630005479
Abong Mbang,3.9833,13.1833,70.84,94,100,2.89,CM,1630005479
Russell,32.3502,-85.1999,88.41,61,40,5.75,US,1630005479
Athabasca,54.7169,-113.2854,71.31,39,74,14.85,CA,1630005480
Zacualtipán,20.65,-98.6,69.39,59,35,9.91,MX,1630005480
Collie,-33.3667,116.15,44.98,79,73,5.91,AU,1630005480
Hokitika,-42.7167,170.9667,51.78,90,100,8.1,NZ,1630005481
Pierre,44.3683,-100.351,72.52,73,90,13.8,US,1630005440
Usinsk,65.9939,57.5281,44.78,90,98,12.08,RU,1630005481
Port Blair,11.6667,92.75,79.83,83,100,11.68,IN,1630005482
Brewster,41.3973,-73.6171,91.62,58,40,1.01,US,1630005483
Blagoyevo,63.3667,47.9167,42.48,80,100,5.12,RU,1630005483
Gigmoto,13.7796,124.39,80.08,84,40,4.61,PH,1630005483
Carupano,10.6678,-63.2585,85.5,62,0,15.77,VE,1630005484
Luanda,-8.8368,13.2343,71.44,89,100,13.62,AO,1630005484
Eureka,40.8021,-124.1637,65.61,73,5,5.99,US,1630005436
Nouakchott,18.0858,-15.9785,82.33,78,27,18.79,MR,1630005485
Marawi,7.9986,124.2928,65.64,93,100,2.26,PH,1630005485
Naze,28.3667,129.4833,76.84,81,9,3.04,JP,1630005485
Ocosingo,17.0667,-92.25,76.84,35,100,5.14,MX,1630005486
Saint-Pierre,-21.3393,55.4781,65.46,82,75,9.22,RE,1630005486
Bilma,18.6853,12.9164,91.98,30,98,11.92,NE,1630005487
Moskovskiy,55.5991,37.355,63.25,94,75,8.95,RU,1630005487
Kearney,40.6995,-99.0815,84.87,74,1,10.36,US,1630005488
Puerto del Rosario,28.5004,-13.8627,74.95,78,20,13.8,ES,1630005488
Taksimo,56.3444,114.8794,56.44,67,62,3.62,RU,1630005488
Key West,24.5557,-81.7826,87.8,70,40,17.27,US,1630005324
Kresttsy,58.2452,32.5165,54.93,84,100,9.19,RU,1630005489
Vila Praia de Âncora,41.811,-8.8526,68.97,85,51,1.19,PT,1630005489
Ulaangom,49.9811,92.0667,52.74,50,14,5.32,MN,1630005490
Khovd,48.0056,91.6419,45.45,83,100,4.47,MN,1630005490
Mirny,62.5353,113.9611,45.46,83,74,9.17,RU,1630005491
Kodinsk,58.6881,99.1844,61.3,76,100,2.42,RU,1630005491
Nizwá,22.9333,57.5333,92.98,33,37,11.7,OM,1630005492
Castelnaudary,43.3183,1.9545,76.01,50,1,1.99,FR,1630005492
Belmonte,-15.8631,-38.8828,80.6,71,4,9.22,BR,1630005492
Byron Bay,-28.65,153.6167,49.51,67,0,7.9,AU,1630005493
Srandakan,-7.9386,110.2506,72.48,81,21,3.0,ID,1630005493
Jumla,29.2747,82.1838,64.47,99,100,1.48,NP,1630005494
Ilhabela,-23.7781,-45.3581,78.42,61,100,5.17,BR,1630005494
Ukiah,39.1502,-123.2078,85.77,23,1,3.44,US,1630005494
Acarí,-15.4311,-74.6158,68.99,64,96,9.06,PE,1630005495
Puerto Quijarro,-17.7833,-57.7667,93.85,20,90,3.49,BO,1630005495
Costineşti,43.95,28.6333,67.41,69,100,5.86,RO,1630005495
Westport,41.1415,-73.3579,91.15,57,1,1.01,US,1630005496
Taoudenni,22.6783,-3.9836,84.85,47,95,30.36,ML,1630005496
Kisangani,0.5167,25.2,77.36,66,6,1.63,CD,1630005497
Poya,-21.35,165.15,69.3,84,97,5.06,NC,1630005497
Tomatlán,19.9333,-105.25,85.51,71,100,5.06,MX,1630005497
Ubari,26.5921,12.7805,89.71,15,0,9.62,LY,1630005498
Verkhnyaya Inta,65.9811,60.3094,44.55,93,100,8.3,RU,1630005498
Prattville,32.464,-86.4597,88.72,59,75,6.91,US,1630005498
Huarmey,-10.0681,-78.1522,67.23,74,22,13.73,PE,1630005499
Kamaishi,39.2667,141.8833,74.77,91,47,5.3,JP,1630005499
Comodoro Rivadavia,-45.8667,-67.5,46.26,66,40,16.11,AR,1630005393
Dubbo,-32.25,148.6167,44.73,87,90,0.0,AU,1630005332
Yumen,40.2833,97.2,66.31,29,99,15.88,CN,1630005500
Pemangkat,1.1667,108.9667,76.57,88,94,4.12,ID,1630005500
DeKalb County,33.7504,-84.2333,87.98,60,20,3.44,US,1630005501
Yashkul',46.1711,45.3435,80.96,26,39,4.81,RU,1630005501
Tuatapere,-46.1333,167.6833,41.83,94,100,2.98,NZ,1630005501
Kipini,-2.5257,40.5262,75.49,80,83,16.58,KE,1630005502
Goderich,43.7501,-81.7165,77.41,78,0,12.66,CA,1630005326
Bogandé,12.9714,-0.1436,72.97,87,100,9.15,BF,1630005502
Jacala,21.0167,-99.1833,74.05,48,17,9.66,MX,1630005503
Zambezi,-13.5432,23.1047,70.66,22,10,3.27,ZM,1630005503
Krasnosel'kup,65.7,82.4667,61.45,94,100,17.07,RU,1630005503
Pangkalanbuun,-2.6833,111.6167,73.31,98,100,2.19,ID,1630005504
Uvarovka,55.5278,35.6061,57.87,97,94,5.14,RU,1630005504
Sayyan,15.1718,44.3244,70.74,28,67,11.25,YE,1630005505
Hatta,24.1167,79.6,77.61,84,100,6.67,IN,1630005505
Soyo,-6.1349,12.3689,74.28,87,64,8.95,AO,1630005505
Esim,4.8699,-2.2405,77.41,84,7,4.92,GH,1630005506
Sinnamary,5.3833,-52.95,82.81,74,42,4.99,GF,1630005506
Adré,13.4667,22.2,70.97,79,100,10.92,TD,1630005506
Tsiroanomandidy,-18.7667,46.0333,71.56,40,77,7.4,MG,1630005507
Manyana,-23.4,21.7167,79.93,21,77,14.45,BW,1630005507
San Antonio,29.4241,-98.4936,94.62,48,20,8.05,US,1630004955
Storforshei,66.4043,14.5233,49.78,76,0,2.3,NO,1630005508
Abnūb,27.2696,31.1511,88.02,24,0,10.65,EG,1630005508
Thurso,58.5927,-3.5259,53.42,89,6,6.08,GB,1630005327
Luganville,-15.5333,167.1667,74.66,80,59,6.87,VU,1630005511
Namwala,-15.7504,26.4384,73.08,25,5,7.65,ZM,1630005511
Aitape,-3.1374,142.3475,77.25,86,97,5.41,PG,1630005511
Kinango,-4.1372,39.3153,66.29,90,1,4.41,KE,1630005512
Krasnyy Luch,48.1395,38.9371,74.86,39,100,12.39,UA,1630005512
Agirish,61.9247,63.0231,49.51,86,2,8.95,RU,1630005512
Fort Nelson,58.8053,-122.7002,67.59,56,75,5.75,CA,1630005489
Astara,38.5,48.6667,66.9,49,0,3.6,AZ,1630005513
Abadzekhskaya,44.3939,40.2214,67.71,93,3,4.54,RU,1630005513
Gizo Government Station,-8.103,156.8419,81.7,76,100,11.18,SB,1630005514
Dunedin,-45.8742,170.5036,43.81,86,100,7.0,NZ,1630005514
Venezuela,8.0,-66.0,91.26,49,80,12.15,VE,1630005514
Borås,57.721,12.9401,54.84,94,100,12.86,SE,1630005515
Aden,12.7794,45.0367,88.63,63,12,6.67,YE,1630005399
Batman,37.8874,41.1322,76.8,33,0,2.3,TR,1630005468
Riberalta,-10.9833,-66.1,97.0,46,75,11.5,BO,1630005515
Lucea,18.451,-78.1736,74.86,91,100,14.18,JM,1630005516
Saint-Augustin,51.226,-58.6502,59.74,81,100,4.36,CA,1630005516
Wahiawā,21.5028,-158.0236,76.68,70,75,8.05,US,1630005517
Berlevåg,70.8578,29.0864,51.75,66,0,2.3,NO,1630005517
Kandrian,-6.2167,149.55,76.06,91,100,5.95,PG,1630005517
Ruska Poliana,49.417,31.9201,61.66,94,100,5.68,UA,1630005518
Plácido de Castro,-10.3353,-67.1856,101.93,22,100,4.36,BR,1630005518
Indramayu,-6.3264,108.32,76.93,69,4,8.55,ID,1630005518
Shebunino,46.4339,141.8603,64.17,92,62,9.13,RU,1630005519
Moerai,-22.4333,-151.3333,75.31,77,10,19.62,PF,1630005519
Dombarovskiy,50.7587,59.5386,75.92,31,0,7.72,RU,1630005519
Salta,-24.7859,-65.4117,66.87,17,0,8.99,AR,1630005520
Kaputa,-8.4689,29.6619,78.03,38,28,3.71,ZM,1630005520
Morro Bay,35.3658,-120.8499,81.54,59,6,8.01,US,1630005253
Blythe,33.6103,-114.5964,108.05,9,20,4.61,US,1630005334
Ola,59.5833,151.2833,53.49,98,100,2.28,RU,1630005521
Rāvar,31.2656,56.8055,82.62,15,0,7.56,IR,1630005521
Torbat-e Jām,35.244,60.6225,78.3,21,0,12.5,IR,1630005522
Bratsk,56.1325,101.6142,52.29,84,60,2.59,RU,1630005502
Bayir,37.2687,28.2167,73.92,45,0,2.35,TR,1630005522
Tromsø,69.6496,18.957,51.82,71,0,4.61,NO,1630005523
Kongolo,-5.3833,27.0,89.1,24,85,3.71,CD,1630005523
Bosaso,11.2842,49.1816,89.69,52,93,2.13,SO,1630005523
Manavālakurichi,8.1333,77.3,78.89,84,68,13.56,IN,1630005524
Orange Cove,36.6244,-119.3137,86.88,39,1,3.44,US,1630005524
Okato,-39.2,173.8833,47.68,92,100,16.44,NZ,1630005524
Lima,-12.0432,-77.0282,61.05,77,90,6.91,PE,1630005226
Martapura,-3.4167,114.85,75.29,100,90,1.14,ID,1630005525
Athens,37.9795,23.7162,83.62,46,0,1.01,GR,1630004760
Pishin,30.5803,66.9961,76.82,13,0,2.44,PK,1630005526
Saint-Michel-des-Saints,46.6834,-73.9159,83.68,38,0,12.03,CA,1630005328
Dzilam González,21.2833,-88.9333,89.4,51,0,10.18,MX,1630005526
Kuching,1.55,110.3333,77.22,94,40,1.14,MY,1630005526
Calbuco,-41.768,-73.1273,45.61,61,99,5.88,CL,1630005527
Kaeo,-35.1,173.7833,57.33,93,100,11.83,NZ,1630005527
Departamento de Maldonado,-34.6667,-54.9167,65.59,51,0,11.27,UY,1630005528
Eyl,7.9803,49.8164,77.59,84,18,22.17,SO,1630005528
Oskemen,49.9565,82.6119,51.76,93,0,0.0,KZ,1630005528
Salalah,17.0151,54.0924,78.89,89,75,6.91,OM,1630005529
Acapulco de Juárez,16.8634,-99.8901,87.62,62,90,12.66,MX,1630005529
Rocha,-34.4833,-54.3333,62.31,49,4,8.57,UY,1630005529
Gemena,3.25,19.7667,76.32,76,55,3.47,CD,1630005530
Pitimbu,-7.4706,-34.8086,81.19,74,16,13.91,BR,1630005530
Pyinmana,19.7333,96.2167,74.8,96,100,4.43,MM,1630005531
Burlington,39.8835,-74.6413,91.58,62,1,1.01,US,1630004990
Ayamé,5.6083,-3.1563,75.31,87,49,3.85,CI,1630005531
Kangasala,61.4638,24.076,55.26,87,100,12.17,FI,1630005532
Tiarei,-17.5333,-149.3333,75.22,76,43,15.88,PF,1630005532
Poli,-3.3333,36.8,59.04,39,0,3.22,TZ,1630005532
Sigli,5.3848,95.9609,77.16,86,58,3.78,ID,1630005533
Innisfail,-17.5333,146.0333,70.36,84,94,4.59,AU,1630005533
Coquimbo,-29.9533,-71.3436,62.33,59,0,14.97,CL,1630005534
Leshukonskoye,64.8989,45.7622,44.92,69,100,3.71,RU,1630005534
Rome,43.2128,-75.4557,88.36,58,1,1.01,US,1630005534
Makueni Boma,-1.8041,37.6203,65.34,42,0,7.0,KE,1630005535
Sechura,-5.5569,-80.8222,76.75,56,70,12.59,PE,1630005535
San Andrés,12.5847,-81.7006,86.02,70,75,6.91,CO,1630005535
